{
  "dealerships": [
    {"id":1,"city":"Detroit","state":"Michigan","address":"123 Auto Boulevard","zip":"48201","lat":42.3314,"long":-83.0458,"short_name":"Motor City Cars","full_name":"Motor City Cars - Detroit"},
    {"id":2,"city":"Los Angeles","state":"California","address":"456 Sunset Strip","zip":"90028","lat":34.0522,"long":-118.2437,"short_name":"LA Auto Group","full_name":"Los Angeles Auto Group"},
    {"id":3,"city":"Houston","state":"Texas","address":"789 Space City Drive","zip":"77001","lat":29.7604,"long":-95.3698,"short_name":"Texas Motors","full_name":"Texas Motors - Houston"},
    {"id":4,"city":"Ann Arbor","state":"Michigan","address":"321 University Avenue","zip":"48104","lat":42.2808,"long":-83.7430,"short_name":"Ann Arbor Autos","full_name":"Ann Arbor Auto Dealership"},
    {"id":5,"city":"Wichita","state":"Kansas","address":"500 Prairie Street","zip":"67202","lat":37.6872,"long":-97.3301,"short_name":"Kansas Auto Mall","full_name":"Kansas Auto Mall - Wichita"},
    {"id":6,"city":"Phoenix","state":"Arizona","address":"789 Desert Road","zip":"85001","lat":33.4484,"long":-112.0740,"short_name":"Phoenix Auto Center","full_name":"Phoenix Auto Center - Arizona"},
    {"id":7,"city":"Seattle","state":"Washington","address":"101 Pike Street","zip":"98101","lat":47.6062,"long":-122.3321,"short_name":"Seattle Motors","full_name":"Seattle Motors - Washington"},
    {"id":8,"city":"Miami","state":"Florida","address":"234 Ocean Drive","zip":"33139","lat":25.7617,"long":-80.1918,"short_name":"Miami Auto Group","full_name":"Miami Auto Group - Florida"},
    {"id":9,"city":"Denver","state":"Colorado","address":"567 Mountain View","zip":"80202","lat":39.7392,"long":-104.9903,"short_name":"Denver Auto Sales","full_name":"Denver Auto Sales - Colorado"},
    {"id":10,"city":"Boston","state":"Massachusetts","address":"890 Harbor Road","zip":"02108","lat":42.3601,"long":-71.0589,"short_name":"Boston Car Emporium","full_name":"Boston Car Emporium - Massachusetts"},
    {"id":11,"city":"Chicago","state":"Illinois","address":"1200 Lake Shore Drive","zip":"60611","lat":41.8781,"long":-87.6298,"short_name":"Windy City Wheels","full_name":"Windy City Wheels - Chicago"},
    {"id":12,"city":"Portland","state":"Oregon","address":"456 Rose Avenue","zip":"97204","lat":45.5152,"long":-122.6784,"short_name":"Portland Auto Plaza","full_name":"Portland Auto Plaza - Oregon"},
    {"id":13,"city":"Atlanta","state":"Georgia","address":"789 Peachtree Street","zip":"30303","lat":33.7490,"long":-84.3880,"short_name":"Atlanta Auto Hub","full_name":"Atlanta Auto Hub - Georgia"},
    {"id":14,"city":"Dallas","state":"Texas","address":"321 Cowboys Way","zip":"75201","lat":32.7767,"long":-96.7970,"short_name":"Big D Motors","full_name":"Big D Motors - Dallas"},
    {"id":15,"city":"San Francisco","state":"California","address":"567 Golden Gate","zip":"94102","lat":37.7749,"long":-122.4194,"short_name":"SF Auto Gallery","full_name":"San Francisco Auto Gallery"},
    {"id":16,"city":"Philadelphia","state":"Pennsylvania","address":"890 Liberty Bell Road","zip":"19107","lat":39.9526,"long":-75.1652,"short_name":"Philly Cars","full_name":"Philadelphia Car Center"},
    {"id":17,"city":"Las Vegas","state":"Nevada","address":"123 Strip Boulevard","zip":"89109","lat":36.1699,"long":-115.1398,"short_name":"Vegas Auto Kings","full_name":"Las Vegas Auto Kings"},
    {"id":18,"city":"Minneapolis","state":"Minnesota","address":"456 Lake Street","zip":"55401","lat":44.9778,"long":-93.2650,"short_name":"Twin Cities Motors","full_name":"Twin Cities Motors - Minneapolis"},
    {"id":19,"city":"Tampa","state":"Florida","address":"789 Bay Drive","zip":"33602","lat":27.9506,"long":-82.4572,"short_name":"Tampa Bay Autos","full_name":"Tampa Bay Auto Center"},
    {"id":20,"city":"San Diego","state":"California","address":"321 Beach Boulevard","zip":"92101","lat":32.7157,"long":-117.1611,"short_name":"San Diego Motors","full_name":"San Diego Motor Company"},
    {"id":21,"city":"Nashville","state":"Tennessee","address":"567 Music Row","zip":"37203","lat":36.1627,"long":-86.7816,"short_name":"Music City Cars","full_name":"Music City Car Dealership"},
    {"id":22,"city":"Austin","state":"Texas","address":"890 Congress Avenue","zip":"78701","lat":30.2672,"long":-97.7431,"short_name":"Austin Auto Group","full_name":"Austin Auto Group - Texas"},
    {"id":23,"city":"Charlotte","state":"North Carolina","address":"123 Queen City Way","zip":"28202","lat":35.2271,"long":-80.8431,"short_name":"Queen City Motors","full_name":"Queen City Motors - Charlotte"},
    {"id":24,"city":"Indianapolis","state":"Indiana","address":"456 Speedway Drive","zip":"46204","lat":39.7684,"long":-86.1581,"short_name":"Indy Auto Plaza","full_name":"Indianapolis Auto Plaza"},
    {"id":25,"city":"Columbus","state":"Ohio","address":"789 Buckeye Boulevard","zip":"43215","lat":39.9612,"long":-82.9988,"short_name":"Columbus Car Center","full_name":"Columbus Car Center - Ohio"},
    {"id":26,"city":"San Antonio","state":"Texas","address":"321 Alamo Street","zip":"78205","lat":29.4241,"long":-98.4936,"short_name":"Alamo Auto Sales","full_name":"Alamo Auto Sales - San Antonio"},
    {"id":27,"city":"Fort Worth","state":"Texas","address":"567 Stockyard Way","zip":"76102","lat":32.7555,"long":-97.3308,"short_name":"Fort Worth Motors","full_name":"Fort Worth Motor Company"},
    {"id":28,"city":"Jacksonville","state":"Florida","address":"890 River Road","zip":"32202","lat":30.3322,"long":-81.6557,"short_name":"Jacksonville Auto Hub","full_name":"Jacksonville Auto Hub"},
    {"id":29,"city":"Oklahoma City","state":"Oklahoma","address":"123 Thunder Avenue","zip":"73102","lat":35.4676,"long":-97.5164,"short_name":"OKC Auto Center","full_name":"Oklahoma City Auto Center"},
    {"id":30,"city":"Louisville","state":"Kentucky","address":"456 Derby Lane","zip":"40202","lat":38.2527,"long":-85.7585,"short_name":"Derby City Cars","full_name":"Derby City Car Dealership"},
    {"id":31,"city":"Milwaukee","state":"Wisconsin","address":"789 Brewery Street","zip":"53202","lat":43.0389,"long":-87.9065,"short_name":"Milwaukee Motors","full_name":"Milwaukee Motor Company"},
    {"id":32,"city":"Albuquerque","state":"New Mexico","address":"321 Desert View","zip":"87102","lat":35.0844,"long":-106.6504,"short_name":"ABQ Auto Sales","full_name":"Albuquerque Auto Sales"},
    {"id":33,"city":"Tucson","state":"Arizona","address":"567 Cactus Road","zip":"85701","lat":32.2226,"long":-110.9747,"short_name":"Tucson Auto Plaza","full_name":"Tucson Auto Plaza - Arizona"},
    {"id":34,"city":"Fresno","state":"California","address":"890 Valley Drive","zip":"93721","lat":36.7378,"long":-119.7871,"short_name":"Fresno Auto Center","full_name":"Fresno Auto Center"},
    {"id":35,"city":"Sacramento","state":"California","address":"123 Capitol Way","zip":"95814","lat":38.5816,"long":-121.4944,"short_name":"Sacramento Motors","full_name":"Sacramento Motor Company"},
    {"id":36,"city":"Mesa","state":"Arizona","address":"456 Mountain View","zip":"85201","lat":33.4152,"long":-111.8315,"short_name":"Mesa Auto Group","full_name":"Mesa Auto Group - Arizona"},
    {"id":37,"city":"Kansas City","state":"Missouri","address":"789 BBQ Boulevard","zip":"64105","lat":39.0997,"long":-94.5786,"short_name":"KC Auto Sales","full_name":"Kansas City Auto Sales"},
    {"id":38,"city":"Omaha","state":"Nebraska","address":"321 Steakhouse Street","zip":"68102","lat":41.2565,"long":-95.9345,"short_name":"Omaha Auto Center","full_name":"Omaha Auto Center"},
    {"id":39,"city":"Raleigh","state":"North Carolina","address":"567 Research Drive","zip":"27601","lat":35.7796,"long":-78.6382,"short_name":"Raleigh Motors","full_name":"Raleigh Motor Company"},
    {"id":40,"city":"Miami Beach","state":"Florida","address":"890 South Beach","zip":"33139","lat":25.7907,"long":-80.1300,"short_name":"South Beach Autos","full_name":"South Beach Auto Dealership"},
    {"id":41,"city":"Cleveland","state":"Ohio","address":"123 Rock Hall Way","zip":"44114","lat":41.4993,"long":-81.6944,"short_name":"Cleveland Auto Hub","full_name":"Cleveland Auto Hub"},
    {"id":42,"city":"Tulsa","state":"Oklahoma","address":"456 Oil Capital Drive","zip":"74103","lat":36.1540,"long":-95.9928,"short_name":"Tulsa Auto Plaza","full_name":"Tulsa Auto Plaza"},
    {"id":43,"city":"Oakland","state":"California","address":"789 Bay Bridge Road","zip":"94612","lat":37.8044,"long":-122.2712,"short_name":"Oakland Motors","full_name":"Oakland Motor Company"},
    {"id":44,"city":"Arlington","state":"Texas","address":"321 Rangers Way","zip":"76010","lat":32.7357,"long":-97.1081,"short_name":"Arlington Auto Group","full_name":"Arlington Auto Group"},
    {"id":45,"city":"New Orleans","state":"Louisiana","address":"567 Bourbon Street","zip":"70112","lat":29.9511,"long":-90.0715,"short_name":"NOLA Auto Sales","full_name":"New Orleans Auto Sales"},
    {"id":46,"city":"Wichita Falls","state":"Kansas","address":"890 Falls Avenue","zip":"67301","lat":37.6922,"long":-97.3375,"short_name":"Wichita Falls Motors","full_name":"Wichita Falls Motor Company"},
    {"id":47,"city":"Topeka","state":"Kansas","address":"123 Capitol Drive","zip":"66603","lat":39.0558,"long":-95.6894,"short_name":"Topeka Auto Center","full_name":"Topeka Auto Center"},
    {"id":48,"city":"Bakersfield","state":"California","address":"456 Oil Fields Road","zip":"93301","lat":35.3733,"long":-119.0187,"short_name":"Bakersfield Autos","full_name":"Bakersfield Auto Dealership"},
    {"id":49,"city":"Aurora","state":"Colorado","address":"789 Mile High Way","zip":"80010","lat":39.7294,"long":-104.8319,"short_name":"Aurora Auto Plaza","full_name":"Aurora Auto Plaza"},
    {"id":50,"city":"Anaheim","state":"California","address":"321 Disneyland Drive","zip":"92802","lat":33.8366,"long":-117.9143,"short_name":"Anaheim Motors","full_name":"Anaheim Motor Company"}
  ]
}